{
    "status": 200,
    "callCount": 1,
    "stations": [
        {
            "id": "Australia:INT_TP001",
            "name": "Rarotonga (Avarua Harbour)",
            "lat": -21.2,
            "lon": -159.7833
        },
        {
            "id": "Australia:INT_TP002",
            "name": "Pohnpei",
            "lat": 6.9833,
            "lon": 158.25
        },
        {
            "id": "Australia:INT_TP003",
            "name": "Lautoka",
            "lat": -17.6,
            "lon": 177.4333
        },
        {
            "id": "Australia:INT_TP004",
            "name": "Suva",
            "lat": -18.1333,
            "lon": 178.4167
        },
        {
            "id": "Australia:INT_TP005",
            "name": "Tarawa (Betio)",
            "lat": 1.3667,
            "lon": 172.9333
        },
        {
            "id": "Australia:INT_TP006",
            "name": "Majuro",
            "lat": 7.1,
            "lon": 171.3667
        },
        {
            "id": "Australia:INT_TP007",
            "name": "Nauru",
            "lat": -0.5333,
            "lon": 166.9167
        },
        {
            "id": "Australia:INT_TP008",
            "name": "Jackson Bay",
            "lat": -43.9667,
            "lon": 168.6167
        },
        {
            "id": "Australia:INT_TP009",
            "name": "Malakal Harbour",
            "lat": 7.3333,
            "lon": 134.4667
        },
        {
            "id": "Australia:INT_TP010",
            "name": "Alotau (Milne Bay)",
            "lat": -10.3167,
            "lon": 150.45
        },
        {
            "id": "Australia:INT_TP011",
            "name": "Anewa Bay",
            "lat": -6.1833,
            "lon": 155.55
        },
        {
            "id": "Australia:INT_TP012",
            "name": "Dregerhafen",
            "lat": -6.65,
            "lon": 147.8833
        },
        {
            "id": "Australia:INT_TP013",
            "name": "Lae",
            "lat": -6.7333,
            "lon": 146.9833
        },
        {
            "id": "Australia:INT_TP014",
            "name": "Madang (Nagada Harbour)",
            "lat": -5.2167,
            "lon": 145.8
        },
        {
            "id": "Australia:INT_TP015",
            "name": "Lombrum",
            "lat": -2.0333,
            "lon": 147.3833
        },
        {
            "id": "Australia:INT_TP016",
            "name": "Kavieng",
            "lat": -2.5833,
            "lon": 150.8
        },
        {
            "id": "Australia:INT_TP017",
            "name": "Rabaul",
            "lat": -4.2,
            "lon": 152.1833
        },
        {
            "id": "Australia:INT_TP018",
            "name": "Point Stone Island",
            "lat": -2.25,
            "lon": 146.55
        },
        {
            "id": "Australia:INT_TP019",
            "name": "Port Moresby",
            "lat": -9.4833,
            "lon": 147.1333
        },
        {
            "id": "Australia:INT_TP020",
            "name": "Umuda Island",
            "lat": -8.5,
            "lon": 143.7833
        },
        {
            "id": "Australia:INT_TP021",
            "name": "Wewak",
            "lat": -3.55,
            "lon": 143.6333
        },
        {
            "id": "Australia:INT_TP022",
            "name": "Apia",
            "lat": -13.8333,
            "lon": -171.7667
        },
        {
            "id": "Australia:INT_TP023",
            "name": "Honiara",
            "lat": -9.4333,
            "lon": 159.95
        },
        {
            "id": "Australia:INT_TP024",
            "name": "Niue Island",
            "lat": -19.0333,
            "lon": -169.9167
        },
        {
            "id": "Australia:INT_TP025",
            "name": "Nuku'alofa",
            "lat": -21.1333,
            "lon": -175.1833
        },
        {
            "id": "Australia:INT_TP026",
            "name": "Funafuti",
            "lat": -8.5,
            "lon": 179.2
        },
        {
            "id": "Australia:INT_TP027",
            "name": "Port Vila",
            "lat": -17.7667,
            "lon": 168.3
        },
        {
            "id": "Australia:INT_TP028",
            "name": "Bobo Island",
            "lat": -9.1,
            "lon": 143.2833
        },
        {
            "id": "Australia:INT_TP029",
            "name": "Bogia",
            "lat": -4.25,
            "lon": 145
        },
        {
            "id": "Australia:INT_TP030",
            "name": "Boia Boia Waga",
            "lat": -10.2167,
            "lon": 150.9167
        },
        {
            "id": "Australia:INT_TP032",
            "name": "Bulavai Point",
            "lat": -9.25,
            "lon": 152.9667
        },
        {
            "id": "Australia:INT_TP033",
            "name": "Cape Deliverance",
            "lat": -11.4,
            "lon": 154.2833
        },
        {
            "id": "Australia:INT_TP034",
            "name": "Daru",
            "lat": -9.0667,
            "lon": 143.2
        },
        {
            "id": "Australia:INT_TP035",
            "name": "Dedele Point",
            "lat": -10.2333,
            "lon": 148.75
        },
        {
            "id": "Australia:INT_TP036",
            "name": "Eleonora Bay",
            "lat": -5.55,
            "lon": 149.7333
        },
        {
            "id": "Australia:INT_TP037",
            "name": "Goaribari Island",
            "lat": -7.75,
            "lon": 144.2
        },
        {
            "id": "Australia:INT_TP038",
            "name": "Kanawea Island",
            "lat": -10.5333,
            "lon": 151.0833
        },
        {
            "id": "Australia:INT_TP039",
            "name": "Kieta",
            "lat": -6.2167,
            "lon": 155.6333
        },
        {
            "id": "Australia:INT_TP040",
            "name": "Margarida",
            "lat": -10.3333,
            "lon": 149.3333
        },
        {
            "id": "Australia:INT_TP041",
            "name": "Omati",
            "lat": -7.55,
            "lon": 144.1
        },
        {
            "id": "Australia:INT_TP042",
            "name": "Oro Bay",
            "lat": -8.8833,
            "lon": 148.4833
        },
        {
            "id": "Australia:INT_TP043",
            "name": "Saidor",
            "lat": -5.6167,
            "lon": 146.4833
        },
        {
            "id": "Australia:INT_TP044",
            "name": "Soroken",
            "lat": -5.5667,
            "lon": 154.7167
        },
        {
            "id": "Australia:INT_TP046",
            "name": "Wasu",
            "lat": -6,
            "lon": 147
        },
        {
            "id": "Australia:INT_TP047",
            "name": "Sharp Island",
            "lat": -9.3167,
            "lon": 152.5167
        },
        {
            "id": "Australia:INT_TP048",
            "name": "East Cape",
            "lat": -10.25,
            "lon": 150.8667
        },
        {
            "id": "Australia:INT_TP049",
            "name": "Luganville Wharf",
            "lat": -15.5167,
            "lon": 167.1833
        },
        {
            "id": "Australia:INT_TP050",
            "name": "Lata Wharf",
            "lat": -10.7167,
            "lon": 165.8
        },
        {
            "id": "Australia:INT_TP051",
            "name": "Tarekukure Wharf",
            "lat": -6.7,
            "lon": 156.4167
        },
        {
            "id": "Australia:INT_TP052",
            "name": "Natovi Wharf",
            "lat": -17.6667,
            "lon": 178.5833
        },
        {
            "id": "Australia:INT_TP053",
            "name": "Neiafu",
            "lat": -18.6667,
            "lon": -173.9833
        },
        {
            "id": "Australia:NSW_TP001",
            "name": "Botany Bay",
            "lat": -33.9667,
            "lon": 151.2167
        },
        {
            "id": "Australia:NSW_TP002",
            "name": "Eden",
            "lat": -37.0667,
            "lon": 149.9
        },
        {
            "id": "Australia:NSW_TP003",
            "name": "Lord Howe Island",
            "lat": -31.5167,
            "lon": 159.0667
        },
        {
            "id": "Australia:NSW_TP004",
            "name": "Newcastle",
            "lat": -32.9167,
            "lon": 151.7833
        },
        {
            "id": "Australia:NSW_TP005",
            "name": "Norfolk Island",
            "lat": -29.05,
            "lon": 167.95
        },
        {
            "id": "Australia:NSW_TP006",
            "name": "Port Kembla",
            "lat": -34.4833,
            "lon": 150.9167
        },
        {
            "id": "Australia:NSW_TP007",
            "name": "Sydney (Fort Denison)",
            "lat": -33.85,
            "lon": 151.2333
        },
        {
            "id": "Australia:NSW_TP008",
            "name": "Yamba",
            "lat": -29.4333,
            "lon": 153.3667
        },
        {
            "id": "Australia:NSW_TP009",
            "name": "Ballina",
            "lat": -28.8667,
            "lon": 153.5833
        },
        {
            "id": "Australia:NSW_TP010",
            "name": "Bermagui",
            "lat": -36.4333,
            "lon": 150.0667
        },
        {
            "id": "Australia:NSW_TP011",
            "name": "Camp Cove",
            "lat": -33.8333,
            "lon": 151.2833
        },
        {
            "id": "Australia:NSW_TP012",
            "name": "Coffs Harbour",
            "lat": -30.3,
            "lon": 153.15
        },
        {
            "id": "Australia:NSW_TP013",
            "name": "Evans Head",
            "lat": -29.1167,
            "lon": 153.4333
        },
        {
            "id": "Australia:NSW_TP014",
            "name": "Jervis Bay",
            "lat": -35.1167,
            "lon": 150.7
        },
        {
            "id": "Australia:NSW_TP015",
            "name": "Port Stephens",
            "lat": -32.7167,
            "lon": 152.1833
        },
        {
            "id": "Australia:NSW_TP016",
            "name": "Brunswick Heads",
            "lat": -28.5333,
            "lon": 153.55
        },
        {
            "id": "Australia:NSW_TP017",
            "name": "Crowdy Head",
            "lat": -31.8333,
            "lon": 152.75
        },
        {
            "id": "Australia:NSW_TP018",
            "name": "Forster",
            "lat": -32.1667,
            "lon": 152.5
        },
        {
            "id": "Australia:NSW_TP019",
            "name": "Harrington Inlet",
            "lat": -31.8667,
            "lon": 152.6833
        },
        {
            "id": "Australia:NSW_TP020",
            "name": "Patonga",
            "lat": -33.55,
            "lon": 151.2667
        },
        {
            "id": "Australia:NSW_TP021",
            "name": "Port Hacking",
            "lat": -34.0833,
            "lon": 151.15
        },
        {
            "id": "Australia:NSW_TP022",
            "name": "Princess Jetty (Batemans Bay)",
            "lat": -35.7,
            "lon": 150.1833
        },
        {
            "id": "Australia:NSW_TP023",
            "name": "South West Rocks",
            "lat": -30.8833,
            "lon": 153.0167
        },
        {
            "id": "Australia:NSW_TP024",
            "name": "Swansea",
            "lat": -33.0833,
            "lon": 151.6333
        },
        {
            "id": "Australia:NSW_TP025",
            "name": "Ulladulla Harbour",
            "lat": -35.35,
            "lon": 150.4833
        },
        {
            "id": "Australia:NSW_TP026",
            "name": "Port Macquarie",
            "lat": -31.4333,
            "lon": 152.9167
        },
        {
            "id": "Australia:NSW_TP027",
            "name": "Crookhaven Heads",
            "lat": -34.9,
            "lon": 150.7667
        },
        {
            "id": "Australia:NSW_TP028",
            "name": "Tweed Heads",
            "lat": -28.1667,
            "lon": 153.55
        },
        {
            "id": "Australia:NSW_TP029",
            "name": "Kingscliff",
            "lat": -28.2667,
            "lon": 153.5833
        },
        {
            "id": "Australia:NSW_TP030",
            "name": "Moruya",
            "lat": -35.9,
            "lon": 150.1167
        },
        {
            "id": "Australia:NSW_TP031",
            "name": "Huskisson",
            "lat": -35.0333,
            "lon": 150.6667
        },
        {
            "id": "Australia:NSW_TP032",
            "name": "Sand Point (Pittwater)",
            "lat": -33.6,
            "lon": 151.3167
        },
        {
            "id": "Australia:NSW_TP033",
            "name": "Ku-ring-gai Y.c.",
            "lat": -33.6167,
            "lon": 151.2
        },
        {
            "id": "Australia:NSW_TP034",
            "name": "Dangar Island",
            "lat": -33.5333,
            "lon": 151.2333
        },
        {
            "id": "Australia:NSW_TP035",
            "name": "Ettalong",
            "lat": -33.5167,
            "lon": 151.3333
        },
        {
            "id": "Australia:NSW_TP036",
            "name": "Gosford",
            "lat": -33.4333,
            "lon": 151.35
        },
        {
            "id": "Australia:NSW_TP037",
            "name": "Broughton Island",
            "lat": -32.6167,
            "lon": 152.3333
        },
        {
            "id": "Australia:NSW_TP038",
            "name": "Camden Haven",
            "lat": -31.6333,
            "lon": 152.8167
        },
        {
            "id": "Australia:NSW_TP039",
            "name": "North West Solitary Island",
            "lat": -30.0167,
            "lon": 153.2833
        },
        {
            "id": "Australia:NT_TP001",
            "name": "Darwin",
            "lat": -12.4667,
            "lon": 130.85
        },
        {
            "id": "Australia:NT_TP002",
            "name": "Melville Bay (Gove Harbour)",
            "lat": -12.2,
            "lon": 136.6667
        },
        {
            "id": "Australia:NT_TP003",
            "name": "Milner Bay (Groote Eylandt)",
            "lat": -13.8667,
            "lon": 136.4167
        },
        {
            "id": "Australia:NT_TP004",
            "name": "Adelaide River",
            "lat": -13.2333,
            "lon": 131.1333
        },
        {
            "id": "Australia:NT_TP005",
            "name": "Auster Point",
            "lat": -11.1,
            "lon": 136.7
        },
        {
            "id": "Australia:NT_TP006",
            "name": "Calder Shoal",
            "lat": -10.85,
            "lon": 129.0667
        },
        {
            "id": "Australia:NT_TP007",
            "name": "Cape Arnhem",
            "lat": -12.3333,
            "lon": 136.9333
        },
        {
            "id": "Australia:NT_TP008",
            "name": "Cape Crocker Offshore",
            "lat": -9.5,
            "lon": 132.7833
        },
        {
            "id": "Australia:NT_TP009",
            "name": "Cape Ford",
            "lat": -13.4333,
            "lon": 129.9167
        },
        {
            "id": "Australia:NT_TP010",
            "name": "Cape Grey",
            "lat": -13,
            "lon": 136.65
        },
        {
            "id": "Australia:NT_TP011",
            "name": "Cape Hotham",
            "lat": -12.05,
            "lon": 131.2833
        },
        {
            "id": "Australia:NT_TP012",
            "name": "Cape Wessel",
            "lat": -11,
            "lon": 136.75
        },
        {
            "id": "Australia:NT_TP013",
            "name": "Catfish Island",
            "lat": -14.5,
            "lon": 129.4667
        },
        {
            "id": "Australia:NT_TP014",
            "name": "Centre Island",
            "lat": -15.75,
            "lon": 136.8167
        },
        {
            "id": "Australia:NT_TP015",
            "name": "Cuthbert Point",
            "lat": -11.75,
            "lon": 133.7833
        },
        {
            "id": "Australia:NT_TP016",
            "name": "East Field Island",
            "lat": -12.1167,
            "lon": 132.4167
        },
        {
            "id": "Australia:NT_TP018",
            "name": "Elcho Island",
            "lat": -11.9333,
            "lon": 135.6667
        },
        {
            "id": "Australia:NT_TP019",
            "name": "Guluwuru Island",
            "lat": -11.5,
            "lon": 136.3333
        },
        {
            "id": "Australia:NT_TP020",
            "name": "Hogmany Shoal",
            "lat": -10.9833,
            "lon": 133.15
        },
        {
            "id": "Australia:NT_TP021",
            "name": "Hutchison River",
            "lat": -12.2,
            "lon": 135.1833
        },
        {
            "id": "Australia:NT_TP022",
            "name": "Jones Point",
            "lat": -14.0833,
            "lon": 129.4833
        },
        {
            "id": "Australia:NT_TP023",
            "name": "Lynedoch Bank",
            "lat": -10.0333,
            "lon": 130.8167
        },
        {
            "id": "Australia:NT_TP024",
            "name": "Money Shoal",
            "lat": -10.3167,
            "lon": 132.7167
        },
        {
            "id": "Australia:NT_TP025",
            "name": "North West Crocodile Island",
            "lat": -11.7167,
            "lon": 135.15
        },
        {
            "id": "Australia:NT_TP026",
            "name": "Paxie Shoal",
            "lat": -11.4333,
            "lon": 134.1333
        },
        {
            "id": "Australia:NT_TP027",
            "name": "Point Stuart",
            "lat": -12.2,
            "lon": 131.9167
        },
        {
            "id": "Australia:NT_TP029",
            "name": "Quoin Island",
            "lat": -14.8167,
            "lon": 129.5667
        },
        {
            "id": "Australia:NT_TP031",
            "name": "The Boxers",
            "lat": -11.45,
            "lon": 128.4333
        },
        {
            "id": "Australia:NT_TP032",
            "name": "Truant Island",
            "lat": -11.65,
            "lon": 136.8167
        },
        {
            "id": "Australia:NT_TP033",
            "name": "Two Hills Bay",
            "lat": -11.5167,
            "lon": 132.05
        },
        {
            "id": "Australia:NT_TP034",
            "name": "West Alligator Head",
            "lat": -12.1333,
            "lon": 132.2667
        },
        {
            "id": "Australia:NT_TP035",
            "name": "West Island",
            "lat": -15.5333,
            "lon": 136.55
        },
        {
            "id": "Australia:NT_TP036",
            "name": "Charles Point Patches",
            "lat": -12.3333,
            "lon": 130.7
        },
        {
            "id": "Australia:NT_TP037",
            "name": "Loxton Shoal",
            "lat": -9.6,
            "lon": 128.7167
        },
        {
            "id": "Australia:NT_TP038",
            "name": "Yabooma Island",
            "lat": -12.0167,
            "lon": 134.9167
        },
        {
            "id": "Australia:NT_TP039",
            "name": "Cape Beatrice",
            "lat": -14.2833,
            "lon": 136.95
        },
        {
            "id": "Australia:NT_TP040",
            "name": "Cape Don",
            "lat": -11.3,
            "lon": 131.7667
        },
        {
            "id": "Australia:NT_TP041",
            "name": "Hawk Island",
            "lat": -13.6333,
            "lon": 136.9
        },
        {
            "id": "Australia:NT_TP042",
            "name": "Port Keats",
            "lat": -14.1667,
            "lon": 129.5667
        },
        {
            "id": "Australia:NT_TP043",
            "name": "St. Asaph Bay",
            "lat": -11.2833,
            "lon": 130.2833
        },
        {
            "id": "Australia:NT_TP044",
            "name": "Medina Inlet South",
            "lat": -11.8333,
            "lon": 130.6167
        },
        {
            "id": "Australia:NT_TP045",
            "name": "South Barlow Point",
            "lat": -11.4167,
            "lon": 130.4167
        },
        {
            "id": "Australia:NT_TP046",
            "name": "Unnamed Shoal",
            "lat": -10.5333,
            "lon": 128.6667
        },
        {
            "id": "Australia:NT_TP047",
            "name": "Evans Shoal",
            "lat": -10.0833,
            "lon": 129.5333
        },
        {
            "id": "Australia:NT_TP048",
            "name": "Cape Scott Offshore",
            "lat": -13.4167,
            "lon": 129.5333
        },
        {
            "id": "Australia:NT_TP049",
            "name": "Anson Bay",
            "lat": -13.35,
            "lon": 130.1
        },
        {
            "id": "Australia:NT_TP050",
            "name": "Goodrich Bank",
            "lat": -10.7,
            "lon": 130.3167
        },
        {
            "id": "Australia:NT_TP051",
            "name": "Peron Island North",
            "lat": -13.1,
            "lon": 129.9667
        },
        {
            "id": "Australia:NT_TP052",
            "name": "Point Jenny",
            "lat": -12.9,
            "lon": 130.1833
        },
        {
            "id": "Australia:NT_TP053",
            "name": "Native Point",
            "lat": -12.65,
            "lon": 130.2667
        },
        {
            "id": "Australia:NT_TP054",
            "name": "Fish Reef",
            "lat": -12.4167,
            "lon": 130.4333
        },
        {
            "id": "Australia:NT_TP055",
            "name": "Tapa Bay",
            "lat": -12.45,
            "lon": 130.6
        },
        {
            "id": "Australia:NT_TP056",
            "name": "Point Fawcett (Offshore)",
            "lat": -11.7,
            "lon": 130.0167
        },
        {
            "id": "Australia:NT_TP057",
            "name": "Burge Point",
            "lat": -12.5833,
            "lon": 130.5667
        },
        {
            "id": "Australia:NT_TP058",
            "name": "Munkunuwa",
            "lat": -11.8833,
            "lon": 130.4667
        },
        {
            "id": "Australia:NT_TP059",
            "name": "Beagle A",
            "lat": -12.0333,
            "lon": 130.1167
        },
        {
            "id": "Australia:NT_TP060",
            "name": "Parsons Bank",
            "lat": -11.9333,
            "lon": 130.7833
        },
        {
            "id": "Australia:NT_TP061",
            "name": "Fenton Patches",
            "lat": -12.2167,
            "lon": 130.6667
        },
        {
            "id": "Australia:NT_TP062",
            "name": "Hancox Shoal Area",
            "lat": -12.0667,
            "lon": 130.8833
        },
        {
            "id": "Australia:NT_TP063",
            "name": "Nightcliff",
            "lat": -12.3833,
            "lon": 130.8333
        },
        {
            "id": "Australia:NT_TP064",
            "name": "Glyde Point",
            "lat": -12.1333,
            "lon": 131.1167
        },
        {
            "id": "Australia:NT_TP065",
            "name": "Chambers Bay",
            "lat": -12.2667,
            "lon": 131.7833
        },
        {
            "id": "Australia:NT_TP066",
            "name": "Christine Reef",
            "lat": -11.75,
            "lon": 131.9667
        },
        {
            "id": "Australia:NT_TP067",
            "name": "Newby Shoal",
            "lat": -11.8667,
            "lon": 129.1833
        },
        {
            "id": "Australia:NT_TP068",
            "name": "Camp Point",
            "lat": -11.6167,
            "lon": 131.4333
        },
        {
            "id": "Australia:NT_TP069",
            "name": "Cape Van Dieman",
            "lat": -11.15,
            "lon": 130.3833
        },
        {
            "id": "Australia:NT_TP070",
            "name": "Snake Bay",
            "lat": -11.4,
            "lon": 130.6667
        },
        {
            "id": "Australia:NT_TP071",
            "name": "Cache Point",
            "lat": -11.3167,
            "lon": 130.9167
        },
        {
            "id": "Australia:NT_TP072",
            "name": "Point Jahleel (Off)",
            "lat": -11.15,
            "lon": 131.2667
        },
        {
            "id": "Australia:NT_TP073",
            "name": "Cadell Strait",
            "lat": -12.05,
            "lon": 135.5833
        },
        {
            "id": "Australia:NT_TP074",
            "name": "Port Essington",
            "lat": -11.05,
            "lon": 132.0333
        },
        {
            "id": "Australia:NT_TP075",
            "name": "Smith Point - West",
            "lat": -11.1333,
            "lon": 132.1167
        },
        {
            "id": "Australia:NT_TP076",
            "name": "Nw Peacock Island",
            "lat": -10.9,
            "lon": 132.3833
        },
        {
            "id": "Australia:NT_TP077",
            "name": "North Of Jones Shoal",
            "lat": -10.8167,
            "lon": 132.2
        },
        {
            "id": "Australia:NT_TP078",
            "name": "Peacock Island",
            "lat": -11.0167,
            "lon": 132.45
        },
        {
            "id": "Australia:NT_TP079",
            "name": "Point David",
            "lat": -11.35,
            "lon": 132.5833
        },
        {
            "id": "Australia:NT_TP080",
            "name": "D'urville Point",
            "lat": -11.2167,
            "lon": 132.3833
        },
        {
            "id": "Australia:NT_TP081",
            "name": "Arafura Sea",
            "lat": -9.5,
            "lon": 132.7833
        },
        {
            "id": "Australia:NT_TP082",
            "name": "Copeland Island",
            "lat": -11.4667,
            "lon": 132.7167
        },
        {
            "id": "Australia:NT_TP083",
            "name": "Cape Cockburn",
            "lat": -11.35,
            "lon": 132.8667
        },
        {
            "id": "Australia:NT_TP084",
            "name": "One Tree Point",
            "lat": -11.15,
            "lon": 132.7167
        },
        {
            "id": "Australia:NT_TP085",
            "name": "New Year Island - West",
            "lat": -10.9167,
            "lon": 133.0167
        },
        {
            "id": "Australia:NT_TP086",
            "name": "Grant Island",
            "lat": -11.1667,
            "lon": 132.8667
        },
        {
            "id": "Australia:NT_TP087",
            "name": "Aurari Bay",
            "lat": -11.7333,
            "lon": 133.25
        },
        {
            "id": "Australia:NT_TP088",
            "name": "North Goulburn Island",
            "lat": -11.5,
            "lon": 133.3833
        },
        {
            "id": "Australia:NT_TP089",
            "name": "Entrance Island",
            "lat": -11.95,
            "lon": 134.2167
        },
        {
            "id": "Australia:NT_TP090",
            "name": "Mallison Island",
            "lat": -12.1833,
            "lon": 136.1
        },
        {
            "id": "Australia:NT_TP091",
            "name": "Stevens Island",
            "lat": -11.55,
            "lon": 136.1167
        },
        {
            "id": "Australia:NT_TP092",
            "name": "Hopeful Bay",
            "lat": -11.4333,
            "lon": 136.5
        },
        {
            "id": "Australia:NT_TP093",
            "name": "Two Island Bay",
            "lat": -11.05,
            "lon": 136.7167
        },
        {
            "id": "Australia:QLD_TP001",
            "name": "Abbot Point",
            "lat": -19.85,
            "lon": 148.1167
        },
        {
            "id": "Australia:QLD_TP002",
            "name": "Bowen",
            "lat": -20.0167,
            "lon": 148.25
        },
        {
            "id": "Australia:QLD_TP003",
            "name": "Brisbane Bar",
            "lat": -27.3667,
            "lon": 153.1667
        },
        {
            "id": "Australia:QLD_TP004",
            "name": "Bugatti Reef",
            "lat": -20.0833,
            "lon": 150.3
        },
        {
            "id": "Australia:QLD_TP005",
            "name": "Bundaberg (Burnett Heads)",
            "lat": -24.7667,
            "lon": 152.3833
        },
        {
            "id": "Australia:QLD_TP006",
            "name": "Cairns",
            "lat": -16.9333,
            "lon": 145.7833
        },
        {
            "id": "Australia:QLD_TP007",
            "name": "Cape Ferguson",
            "lat": -19.2833,
            "lon": 147.05
        },
        {
            "id": "Australia:QLD_TP008",
            "name": "Gladstone",
            "lat": -23.8333,
            "lon": 151.25
        },
        {
            "id": "Australia:QLD_TP009",
            "name": "Gold Coast Operations Base",
            "lat": -27.9667,
            "lon": 153.4167
        },
        {
            "id": "Australia:QLD_TP010",
            "name": "Gold Coast Sand Bypass Jetty",
            "lat": -27.9333,
            "lon": 153.4333
        },
        {
            "id": "Australia:QLD_TP011",
            "name": "Gold Coast Seaway",
            "lat": -27.95,
            "lon": 153.4167
        },
        {
            "id": "Australia:QLD_TP012",
            "name": "Hay Point",
            "lat": -21.2667,
            "lon": 149.3
        },
        {
            "id": "Australia:QLD_TP013",
            "name": "Australia",
            "lat": -17.5,
            "lon": 140.8333
        },
        {
            "id": "Australia:QLD_TP014",
            "name": "Leggatt Island",
            "lat": -14.5333,
            "lon": 144.85
        },
        {
            "id": "Australia:QLD_TP015",
            "name": "Lihou Reef",
            "lat": -17.1333,
            "lon": 152.15
        },
        {
            "id": "Australia:QLD_TP016",
            "name": "Lizard Island (Qld)",
            "lat": -14.65,
            "lon": 145.45
        },
        {
            "id": "Australia:QLD_TP017",
            "name": "Lucinda (Offshore)",
            "lat": -18.5167,
            "lon": 146.3833
        },
        {
            "id": "Australia:QLD_TP018",
            "name": "Mackay Outer Harbour",
            "lat": -21.1167,
            "lon": 149.2333
        },
        {
            "id": "Australia:QLD_TP019",
            "name": "Mooloolaba",
            "lat": -26.6833,
            "lon": 153.1167
        },
        {
            "id": "Australia:QLD_TP020",
            "name": "Mourilyan Harbour",
            "lat": -17.6,
            "lon": 146.1167
        },
        {
            "id": "Australia:QLD_TP021",
            "name": "Noosa Head",
            "lat": -26.3833,
            "lon": 153.1
        },
        {
            "id": "Australia:QLD_TP022",
            "name": "Port Alma",
            "lat": -23.5833,
            "lon": 150.8667
        },
        {
            "id": "Australia:QLD_TP023",
            "name": "Port Douglas",
            "lat": -16.4833,
            "lon": 145.4667
        },
        {
            "id": "Australia:QLD_TP024",
            "name": "Rosslyn Bay",
            "lat": -23.1667,
            "lon": 150.8
        },
        {
            "id": "Australia:QLD_TP025",
            "name": "Shute Harbour",
            "lat": -20.2833,
            "lon": 148.7833
        },
        {
            "id": "Australia:QLD_TP026",
            "name": "Booby Island",
            "lat": -10.6,
            "lon": 141.9167
        },
        {
            "id": "Australia:QLD_TP027",
            "name": "Goods Island",
            "lat": -10.5667,
            "lon": 142.15
        },
        {
            "id": "Australia:QLD_TP028",
            "name": "Ince Point",
            "lat": -10.5667,
            "lon": 142.3167
        },
        {
            "id": "Australia:QLD_TP029",
            "name": "Nardana Patches",
            "lat": -10.5,
            "lon": 142.25
        },
        {
            "id": "Australia:QLD_TP030",
            "name": "Thursday Island",
            "lat": -10.5833,
            "lon": 142.2167
        },
        {
            "id": "Australia:QLD_TP031",
            "name": "Turtle Head",
            "lat": -10.5167,
            "lon": 142.2167
        },
        {
            "id": "Australia:QLD_TP032",
            "name": "Twin Island",
            "lat": -10.45,
            "lon": 142.45
        },
        {
            "id": "Australia:QLD_TP033",
            "name": "Townsville",
            "lat": -19.25,
            "lon": 146.8333
        },
        {
            "id": "Australia:QLD_TP034",
            "name": "Urangan",
            "lat": -25.3,
            "lon": 152.9
        },
        {
            "id": "Australia:QLD_TP035",
            "name": "Waddy Point (Fraser Island)",
            "lat": -24.9667,
            "lon": 153.35
        },
        {
            "id": "Australia:QLD_TP036",
            "name": "Weipa (Humbug Point)",
            "lat": -12.6667,
            "lon": 141.8667
        },
        {
            "id": "Australia:QLD_TP037",
            "name": "Albino Rock",
            "lat": -18.7833,
            "lon": 146.7167
        },
        {
            "id": "Australia:QLD_TP038",
            "name": "Archer River",
            "lat": -13.3333,
            "lon": 141.65
        },
        {
            "id": "Australia:QLD_TP039",
            "name": "Beaver Reef",
            "lat": -17.85,
            "lon": 146.5
        },
        {
            "id": "Australia:QLD_TP040",
            "name": "Bell Cay",
            "lat": -21.8,
            "lon": 151.25
        },
        {
            "id": "Australia:QLD_TP045",
            "name": "Bountiful Island",
            "lat": -16.6667,
            "lon": 139.85
        },
        {
            "id": "Australia:QLD_TP046",
            "name": "Boyd Point",
            "lat": -12.9167,
            "lon": 141.6167
        },
        {
            "id": "Australia:QLD_TP047",
            "name": "Britomart Reef",
            "lat": -18.25,
            "lon": 146.7167
        },
        {
            "id": "Australia:QLD_TP050",
            "name": "Cape Melville",
            "lat": -14.1667,
            "lon": 144.4833
        },
        {
            "id": "Australia:QLD_TP051",
            "name": "Cato Island",
            "lat": -23.25,
            "lon": 155.5333
        },
        {
            "id": "Australia:QLD_TP052",
            "name": "Chapman Island",
            "lat": -12.8833,
            "lon": 143.6
        },
        {
            "id": "Australia:QLD_TP053",
            "name": "Christmas Creek",
            "lat": -14.5,
            "lon": 141.35
        },
        {
            "id": "Australia:QLD_TP054",
            "name": "Cooktown",
            "lat": -15.4667,
            "lon": 145.25
        },
        {
            "id": "Australia:QLD_TP055",
            "name": "Crab Island",
            "lat": -10.9667,
            "lon": 142.1167
        },
        {
            "id": "Australia:QLD_TP056",
            "name": "Creal Reef",
            "lat": -20.5333,
            "lon": 150.3667
        },
        {
            "id": "Australia:QLD_TP057",
            "name": "Cruiser Passage",
            "lat": -15.6667,
            "lon": 145.7833
        },
        {
            "id": "Australia:QLD_TP058",
            "name": "Cullen Point",
            "lat": -11.95,
            "lon": 141.9167
        },
        {
            "id": "Australia:QLD_TP062",
            "name": "Dunk Island",
            "lat": -17.9333,
            "lon": 146.1333
        },
        {
            "id": "Australia:QLD_TP065",
            "name": "Endeavour River North",
            "lat": -15.4333,
            "lon": 145.2
        },
        {
            "id": "Australia:QLD_TP066",
            "name": "Euston Reef",
            "lat": -16.6833,
            "lon": 146.25
        },
        {
            "id": "Australia:QLD_TP067",
            "name": "Fife Island",
            "lat": -13.65,
            "lon": 143.7167
        },
        {
            "id": "Australia:QLD_TP068",
            "name": "Fitzroy Island",
            "lat": -16.9167,
            "lon": 146
        },
        {
            "id": "Australia:QLD_TP069",
            "name": "Flinders Reef",
            "lat": -17.7333,
            "lon": 148.45
        },
        {
            "id": "Australia:QLD_TP070",
            "name": "Gannet Cay",
            "lat": -21.9833,
            "lon": 152.4667
        },
        {
            "id": "Australia:QLD_TP071",
            "name": "Gatcombe Head",
            "lat": -23.8833,
            "lon": 151.3667
        },
        {
            "id": "Australia:QLD_TP073",
            "name": "Green Island",
            "lat": -16.7667,
            "lon": 145.9667
        },
        {
            "id": "Australia:QLD_TP074",
            "name": "Harvey Island",
            "lat": -11.9667,
            "lon": 143.2667
        },
        {
            "id": "Australia:QLD_TP075",
            "name": "Heron Island",
            "lat": -23.4333,
            "lon": 151.9
        },
        {
            "id": "Australia:QLD_TP076",
            "name": "Hicks Island",
            "lat": -11.9833,
            "lon": 143.2667
        },
        {
            "id": "Australia:QLD_TP077",
            "name": "High Peak Island",
            "lat": -21.95,
            "lon": 150.6833
        },
        {
            "id": "Australia:QLD_TP080",
            "name": "Kubin (Moa Island)",
            "lat": -10.2333,
            "lon": 142.2167
        },
        {
            "id": "Australia:QLD_TP082",
            "name": "Mcewin Islet",
            "lat": -22.15,
            "lon": 149.6
        },
        {
            "id": "Australia:QLD_TP083",
            "name": "Michaelmas Cay",
            "lat": -16.6,
            "lon": 145.9833
        },
        {
            "id": "Australia:QLD_TP084",
            "name": "Mornington Island",
            "lat": -16.6667,
            "lon": 139.1667
        },
        {
            "id": "Australia:QLD_TP085",
            "name": "Morris Island",
            "lat": -13.4833,
            "lon": 143.7167
        },
        {
            "id": "Australia:QLD_TP086",
            "name": "Nassau River Offshore",
            "lat": -15.4,
            "lon": 140.2
        },
        {
            "id": "Australia:QLD_TP087",
            "name": "Night Island",
            "lat": -13.1833,
            "lon": 143.9167
        },
        {
            "id": "Australia:QLD_TP088",
            "name": "North Barnard Island",
            "lat": -17.6667,
            "lon": 146.1833
        },
        {
            "id": "Australia:QLD_TP092",
            "name": "Pennefather River",
            "lat": -12.2333,
            "lon": 141.7167
        },
        {
            "id": "Australia:QLD_TP093",
            "name": "Penrith Island",
            "lat": -21,
            "lon": 149.9
        },
        {
            "id": "Australia:QLD_TP094",
            "name": "Pipon Islands",
            "lat": -14.1167,
            "lon": 144.5
        },
        {
            "id": "Australia:QLD_TP095",
            "name": "Pith Reef",
            "lat": -18.2167,
            "lon": 147.0167
        },
        {
            "id": "Australia:QLD_TP097",
            "name": "Raine Island",
            "lat": -11.5833,
            "lon": 144.0333
        },
        {
            "id": "Australia:QLD_TP098",
            "name": "Red Island Point",
            "lat": -10.85,
            "lon": 142.3667
        },
        {
            "id": "Australia:QLD_TP099",
            "name": "Rib Reef",
            "lat": -18.4667,
            "lon": 146.8667
        },
        {
            "id": "Australia:QLD_TP100",
            "name": "Ribbon Reef No.9",
            "lat": -14.9833,
            "lon": 145.6667
        },
        {
            "id": "Australia:QLD_TP101",
            "name": "Rocky Island",
            "lat": -12.5833,
            "lon": 143.4167
        },
        {
            "id": "Australia:QLD_TP102",
            "name": "Russell Island",
            "lat": -17.2167,
            "lon": 146.1
        },
        {
            "id": "Australia:QLD_TP104",
            "name": "Serpentine Creek",
            "lat": -27.35,
            "lon": 153.1
        },
        {
            "id": "Australia:QLD_TP106",
            "name": "Sharp Point",
            "lat": -10.9667,
            "lon": 142.7167
        },
        {
            "id": "Australia:QLD_TP108",
            "name": "Snapper Rocks",
            "lat": -28.1667,
            "lon": 153.5167
        },
        {
            "id": "Australia:QLD_TP110",
            "name": "South Trees (Storm Surge)",
            "lat": -23.85,
            "lon": 151.3
        },
        {
            "id": "Australia:QLD_TP111",
            "name": "Stephens Island",
            "lat": -9.5,
            "lon": 143.55
        },
        {
            "id": "Australia:QLD_TP112",
            "name": "Sweers Island",
            "lat": -17.1167,
            "lon": 139.6
        },
        {
            "id": "Australia:QLD_TP114",
            "name": "Thomas Island",
            "lat": -20.55,
            "lon": 149.1167
        },
        {
            "id": "Australia:QLD_TP115",
            "name": "Alert Patches",
            "lat": -10.4833,
            "lon": 142.35
        },
        {
            "id": "Australia:QLD_TP116",
            "name": "Coconut Island",
            "lat": -10.05,
            "lon": 143.0667
        },
        {
            "id": "Australia:QLD_TP117",
            "name": "East Cay",
            "lat": -9.3833,
            "lon": 144.2167
        },
        {
            "id": "Australia:QLD_TP118",
            "name": "Frederick Point",
            "lat": -10.7167,
            "lon": 142.6
        },
        {
            "id": "Australia:QLD_TP120",
            "name": "Papou Point",
            "lat": -10.6167,
            "lon": 142.3333
        },
        {
            "id": "Australia:QLD_TP121",
            "name": "Phipi Reef",
            "lat": -9.6,
            "lon": 142.5333
        },
        {
            "id": "Australia:QLD_TP122",
            "name": "Poll Island",
            "lat": -10.25,
            "lon": 142.8167
        },
        {
            "id": "Australia:QLD_TP123",
            "name": "Yam Island",
            "lat": -9.9,
            "lon": 142.7667
        },
        {
            "id": "Australia:QLD_TP124",
            "name": "Zagai Island",
            "lat": -9.8667,
            "lon": 142.9
        },
        {
            "id": "Australia:QLD_TP125",
            "name": "Turtle Head Island",
            "lat": -10.9167,
            "lon": 142.7
        },
        {
            "id": "Australia:QLD_TP128",
            "name": "Vrilya Point",
            "lat": -11.2167,
            "lon": 142.1167
        },
        {
            "id": "Australia:QLD_TP129",
            "name": "Wallaby Reef",
            "lat": -19.4667,
            "lon": 148.6667
        },
        {
            "id": "Australia:QLD_TP131",
            "name": "Whitetip Reef Front",
            "lat": -20.0833,
            "lon": 150.3
        },
        {
            "id": "Australia:QLD_TP132",
            "name": "Whitetip Reef Rear",
            "lat": -20.1,
            "lon": 150.2833
        },
        {
            "id": "Australia:QLD_TP134",
            "name": "Willis Island",
            "lat": -16.3167,
            "lon": 149.9667
        },
        {
            "id": "Australia:QLD_TP135",
            "name": "Cardwell",
            "lat": -18.25,
            "lon": 146.0333
        },
        {
            "id": "Australia:QLD_TP136",
            "name": "Clump Point",
            "lat": -17.85,
            "lon": 146.1
        },
        {
            "id": "Australia:QLD_TP137",
            "name": "Laguna Quays",
            "lat": -20.6,
            "lon": 148.6667
        },
        {
            "id": "Australia:QLD_TP138",
            "name": "Brisbane Port Office",
            "lat": -27.4667,
            "lon": 153.0333
        },
        {
            "id": "Australia:QLD_TP139",
            "name": "Albert River Mouth",
            "lat": -17.55,
            "lon": 139.7667
        },
        {
            "id": "Australia:QLD_TP140",
            "name": "Burketown",
            "lat": -17.7333,
            "lon": 139.6
        },
        {
            "id": "Australia:QLD_TP141",
            "name": "Normanton",
            "lat": -17.6667,
            "lon": 141.0833
        },
        {
            "id": "Australia:QLD_TP142",
            "name": "West Wellesley Islands",
            "lat": -16.8,
            "lon": 138.9667
        },
        {
            "id": "Australia:QLD_TP143",
            "name": "St Pauls (Moa Island)",
            "lat": -10.2,
            "lon": 142.3333
        },
        {
            "id": "Australia:QLD_TP144",
            "name": "Dauan Island",
            "lat": -9.4167,
            "lon": 142.5333
        },
        {
            "id": "Australia:QLD_TP145",
            "name": "Nerang River (Bundall)",
            "lat": -28,
            "lon": 153.4167
        },
        {
            "id": "Australia:QLD_TP146",
            "name": "Runaway Bay",
            "lat": -27.9167,
            "lon": 153.4
        },
        {
            "id": "Australia:QLD_TP147",
            "name": "Bribie Island",
            "lat": -27.0833,
            "lon": 153.15
        },
        {
            "id": "Australia:QLD_TP148",
            "name": "Beacon M2",
            "lat": -27.0833,
            "lon": 153.3
        },
        {
            "id": "Australia:QLD_TP149",
            "name": "Tangalooma Point",
            "lat": -27.1833,
            "lon": 153.3667
        },
        {
            "id": "Australia:QLD_TP150",
            "name": "Caloundra Head",
            "lat": -26.8,
            "lon": 153.15
        },
        {
            "id": "Australia:QLD_TP151",
            "name": "Elbow Point",
            "lat": -25.8,
            "lon": 153.0167
        },
        {
            "id": "Australia:QLD_TP152",
            "name": "Boonlye Point",
            "lat": -25.5667,
            "lon": 152.9333
        },
        {
            "id": "Australia:QLD_TP153",
            "name": "Ungowa",
            "lat": -25.5,
            "lon": 152.9833
        },
        {
            "id": "Australia:QLD_TP154",
            "name": "Elliot Heads",
            "lat": -24.9167,
            "lon": 152.4833
        },
        {
            "id": "Australia:QLD_TP155",
            "name": "Clews Point",
            "lat": -24,
            "lon": 151.7333
        },
        {
            "id": "Australia:QLD_TP156",
            "name": "Round Hill Head",
            "lat": -24.1667,
            "lon": 151.8833
        },
        {
            "id": "Australia:QLD_TP157",
            "name": "Lady Musgrave Island",
            "lat": -23.9167,
            "lon": 152.3833
        },
        {
            "id": "Australia:QLD_TP158",
            "name": "Lady Elliot Island",
            "lat": -24.1167,
            "lon": 152.7167
        },
        {
            "id": "Australia:QLD_TP159",
            "name": "Breaksea Spit",
            "lat": -24.3833,
            "lon": 153.1
        },
        {
            "id": "Australia:QLD_TP160",
            "name": "One Tree Islet",
            "lat": -23.5,
            "lon": 152.05
        },
        {
            "id": "Australia:QLD_TP161",
            "name": "Polmaise Reef",
            "lat": -23.5667,
            "lon": 151.65
        },
        {
            "id": "Australia:QLD_TP162",
            "name": "Tryon Island",
            "lat": -23.2333,
            "lon": 151.7667
        },
        {
            "id": "Australia:QLD_TP163",
            "name": "Rock Cod Shoal",
            "lat": -23.6833,
            "lon": 151.6333
        },
        {
            "id": "Australia:QLD_TP164",
            "name": "Cape Capricorn",
            "lat": -23.4833,
            "lon": 151.2333
        },
        {
            "id": "Australia:QLD_TP165",
            "name": "Middle Island (Keppel Isles)",
            "lat": -23.1667,
            "lon": 150.9333
        },
        {
            "id": "Australia:QLD_TP166",
            "name": "Port Clinton",
            "lat": -22.5333,
            "lon": 150.75
        },
        {
            "id": "Australia:QLD_TP167",
            "name": "Peaked Island",
            "lat": -22.65,
            "lon": 150.9667
        },
        {
            "id": "Australia:QLD_TP168",
            "name": "Karamea Bank",
            "lat": -22.65,
            "lon": 151.5167
        },
        {
            "id": "Australia:QLD_TP169",
            "name": "Johnson Patch - Nw",
            "lat": -23.0333,
            "lon": 151.3333
        },
        {
            "id": "Australia:QLD_TP170",
            "name": "Mumford Island",
            "lat": -22.1833,
            "lon": 150.35
        },
        {
            "id": "Australia:QLD_TP171",
            "name": "Osborn Island",
            "lat": -22.2833,
            "lon": 150.2333
        },
        {
            "id": "Australia:QLD_TP172",
            "name": "Marquis Island",
            "lat": -22.3333,
            "lon": 150.45
        },
        {
            "id": "Australia:QLD_TP173",
            "name": "Reef Point",
            "lat": -22.3167,
            "lon": 150.55
        },
        {
            "id": "Australia:QLD_TP174",
            "name": "Elusive Reef",
            "lat": -21.1,
            "lon": 152.7667
        },
        {
            "id": "Australia:QLD_TP175",
            "name": "Prudhoe Island",
            "lat": -21.3,
            "lon": 149.6667
        },
        {
            "id": "Australia:QLD_TP176",
            "name": "Middle Island (Percy Isles)",
            "lat": -21.65,
            "lon": 150.25
        },
        {
            "id": "Australia:QLD_TP177",
            "name": "Carlisle Island (Off)",
            "lat": -20.7833,
            "lon": 149.2833
        },
        {
            "id": "Australia:QLD_TP178",
            "name": "St. Bees Island",
            "lat": -20.9,
            "lon": 149.45
        },
        {
            "id": "Australia:QLD_TP179",
            "name": "Scawfell Island",
            "lat": -20.8667,
            "lon": 149.6167
        },
        {
            "id": "Australia:QLD_TP180",
            "name": "Credlin Reef",
            "lat": -20.5333,
            "lon": 149.9333
        },
        {
            "id": "Australia:QLD_TP181",
            "name": "East Repulse Island",
            "lat": -20.5833,
            "lon": 148.8833
        },
        {
            "id": "Australia:QLD_TP182",
            "name": "Blacksmith Island",
            "lat": -20.6167,
            "lon": 149.05
        },
        {
            "id": "Australia:QLD_TP183",
            "name": "Tideway Reef",
            "lat": -20,
            "lon": 149.7167
        },
        {
            "id": "Australia:QLD_TP184",
            "name": "Hayman Island",
            "lat": -20.05,
            "lon": 148.8833
        },
        {
            "id": "Australia:QLD_TP185",
            "name": "Square Reef",
            "lat": -20.0667,
            "lon": 149.7833
        },
        {
            "id": "Australia:QLD_TP186",
            "name": "Double Bay",
            "lat": -20.1833,
            "lon": 148.6333
        },
        {
            "id": "Australia:QLD_TP187",
            "name": "Molle Island",
            "lat": -20.25,
            "lon": 148.8333
        },
        {
            "id": "Australia:QLD_TP188",
            "name": "Cid Harbour",
            "lat": -20.2667,
            "lon": 148.9167
        },
        {
            "id": "Australia:QLD_TP189",
            "name": "Hook Island",
            "lat": -20.0667,
            "lon": 148.9333
        },
        {
            "id": "Australia:QLD_TP190",
            "name": "Border Island",
            "lat": -20.1667,
            "lon": 149.0333
        },
        {
            "id": "Australia:QLD_TP191",
            "name": "Haslewood Island",
            "lat": -20.2667,
            "lon": 149.0833
        },
        {
            "id": "Australia:QLD_TP192",
            "name": "Stanley Reef",
            "lat": -19.2833,
            "lon": 148.0667
        },
        {
            "id": "Australia:QLD_TP193",
            "name": "Kennedy Reef",
            "lat": -19.5,
            "lon": 149.15
        },
        {
            "id": "Australia:QLD_TP194",
            "name": "Unnamed Reef No. 2",
            "lat": -19.6167,
            "lon": 149.8333
        },
        {
            "id": "Australia:QLD_TP195",
            "name": "Jaguar Reef",
            "lat": -18.9667,
            "lon": 148.4333
        },
        {
            "id": "Australia:QLD_TP196",
            "name": "Shrimp Reef",
            "lat": -18.9333,
            "lon": 148.0667
        },
        {
            "id": "Australia:QLD_TP197",
            "name": "John Brewer Reef",
            "lat": -18.6333,
            "lon": 147.05
        },
        {
            "id": "Australia:QLD_TP198",
            "name": "Dip Reef",
            "lat": -18.4,
            "lon": 147.4167
        },
        {
            "id": "Australia:QLD_TP199",
            "name": "Barnett Patches",
            "lat": -18.0667,
            "lon": 146.8333
        },
        {
            "id": "Australia:QLD_TP200",
            "name": "Goold Island",
            "lat": -18.1667,
            "lon": 146.15
        },
        {
            "id": "Australia:QLD_TP201",
            "name": "Unnamed Reef No. 1",
            "lat": -17.8667,
            "lon": 146.7167
        },
        {
            "id": "Australia:QLD_TP202",
            "name": "Cowley Beach",
            "lat": -17.6833,
            "lon": 146.1167
        },
        {
            "id": "Australia:QLD_TP203",
            "name": "Eddy Reef",
            "lat": -17.7833,
            "lon": 146.3667
        },
        {
            "id": "Australia:QLD_TP204",
            "name": "Peart Reef",
            "lat": -17.4833,
            "lon": 146.4167
        },
        {
            "id": "Australia:QLD_TP205",
            "name": "Nathan Reef",
            "lat": -17.5333,
            "lon": 146.5
        },
        {
            "id": "Australia:QLD_TP206",
            "name": "Sudbury Cay",
            "lat": -16.95,
            "lon": 146.1333
        },
        {
            "id": "Australia:QLD_TP207",
            "name": "High Island",
            "lat": -17.1667,
            "lon": 146
        },
        {
            "id": "Australia:QLD_TP208",
            "name": "Swallows Landing",
            "lat": -16.9833,
            "lon": 145.7667
        },
        {
            "id": "Australia:QLD_TP209",
            "name": "Palm Cove",
            "lat": -16.7333,
            "lon": 145.6667
        },
        {
            "id": "Australia:QLD_TP210",
            "name": "Yorkeys Knob",
            "lat": -16.8,
            "lon": 145.7167
        },
        {
            "id": "Australia:QLD_TP211",
            "name": "East Hope Island",
            "lat": -15.7333,
            "lon": 145.45
        },
        {
            "id": "Australia:QLD_TP212",
            "name": "Bailay Creek",
            "lat": -16.2,
            "lon": 145.45
        },
        {
            "id": "Australia:QLD_TP213",
            "name": "Low Islets",
            "lat": -16.3833,
            "lon": 145.5667
        },
        {
            "id": "Australia:QLD_TP214",
            "name": "Holmes Reef",
            "lat": -16.4667,
            "lon": 147.85
        },
        {
            "id": "Australia:QLD_TP215",
            "name": "Low Wooded Island",
            "lat": -15.0833,
            "lon": 145.3833
        },
        {
            "id": "Australia:QLD_TP216",
            "name": "Cape Bedford",
            "lat": -15.2167,
            "lon": 145.3333
        },
        {
            "id": "Australia:QLD_TP217",
            "name": "Normanby River",
            "lat": -14.4333,
            "lon": 144.15
        },
        {
            "id": "Australia:QLD_TP218",
            "name": "Carter Reef",
            "lat": -14.5667,
            "lon": 145.6
        },
        {
            "id": "Australia:QLD_TP219",
            "name": "East Petherbridge Island",
            "lat": -14.7333,
            "lon": 145.1
        },
        {
            "id": "Australia:QLD_TP220",
            "name": "North Direction Island",
            "lat": -14.75,
            "lon": 145.5
        },
        {
            "id": "Australia:QLD_TP221",
            "name": "Cape Flattery",
            "lat": -14.95,
            "lon": 145.3167
        },
        {
            "id": "Australia:QLD_TP222",
            "name": "Munro Reef",
            "lat": -14.3,
            "lon": 144.7167
        },
        {
            "id": "Australia:QLD_TP223",
            "name": "Eden Reef",
            "lat": -14.0833,
            "lon": 143.9167
        },
        {
            "id": "Australia:QLD_TP224",
            "name": "Stanley Island",
            "lat": -14.15,
            "lon": 144.25
        },
        {
            "id": "Australia:QLD_TP226",
            "name": "1st 3 Mile Opening",
            "lat": -13.4833,
            "lon": 144.0333
        },
        {
            "id": "Australia:QLD_TP227",
            "name": "Creech Reef",
            "lat": -13.6333,
            "lon": 144.0833
        },
        {
            "id": "Australia:QLD_TP228",
            "name": "Unnamed Reef No. 3",
            "lat": -13.3333,
            "lon": 143.9667
        },
        {
            "id": "Australia:QLD_TP229",
            "name": "Ham Reef",
            "lat": -13.0333,
            "lon": 143.8667
        },
        {
            "id": "Australia:QLD_TP230",
            "name": "Jubilee Reef",
            "lat": -13.1667,
            "lon": 143.7667
        },
        {
            "id": "Australia:QLD_TP232",
            "name": "Sir Charles Hardy Island",
            "lat": -11.9167,
            "lon": 143.4333
        },
        {
            "id": "Australia:QLD_TP234",
            "name": "Kay Reef",
            "lat": -12.2167,
            "lon": 143.5333
        },
        {
            "id": "Australia:QLD_TP235",
            "name": "Mcsweeny Reef",
            "lat": -11.0167,
            "lon": 143.2333
        },
        {
            "id": "Australia:QLD_TP236",
            "name": "Collette Reef",
            "lat": -11.2333,
            "lon": 143.35
        },
        {
            "id": "Australia:QLD_TP237",
            "name": "Shadwell Reef",
            "lat": -11.45,
            "lon": 143.7667
        },
        {
            "id": "Australia:QLD_TP238",
            "name": "Hannibal Island",
            "lat": -11.5833,
            "lon": 142.9333
        },
        {
            "id": "Australia:QLD_TP239",
            "name": "Round Point",
            "lat": -11.8833,
            "lon": 143.1
        },
        {
            "id": "Australia:QLD_TP240",
            "name": "Cape Grenville",
            "lat": -11.9667,
            "lon": 143.2667
        },
        {
            "id": "Australia:QLD_TP241",
            "name": "Maclennan Cay",
            "lat": -11.3167,
            "lon": 143.8
        },
        {
            "id": "Australia:QLD_TP242",
            "name": "Wyborn Reef Light",
            "lat": -10.8167,
            "lon": 142.7833
        },
        {
            "id": "Australia:QLD_TP243",
            "name": "Tetley Island",
            "lat": -10.7333,
            "lon": 142.7333
        },
        {
            "id": "Australia:QLD_TP244",
            "name": "Triangle Reef",
            "lat": -10.75,
            "lon": 143.9833
        },
        {
            "id": "Australia:QLD_TP245",
            "name": "Possession Island",
            "lat": -10.7333,
            "lon": 142.4
        },
        {
            "id": "Australia:QLD_TP246",
            "name": "Alpha Rock",
            "lat": -10.6333,
            "lon": 142.5333
        },
        {
            "id": "Australia:QLD_TP247",
            "name": "Red Wallis Island",
            "lat": -10.85,
            "lon": 142.0333
        },
        {
            "id": "Australia:QLD_TP248",
            "name": "Packe Island",
            "lat": -10.75,
            "lon": 142.2333
        },
        {
            "id": "Australia:QLD_TP249",
            "name": "Harrington Reef",
            "lat": -10.8167,
            "lon": 142.7167
        },
        {
            "id": "Australia:QLD_TP250",
            "name": "Herald Camp",
            "lat": -10.9333,
            "lon": 142.15
        },
        {
            "id": "Australia:QLD_TP251",
            "name": "Bampfield Head",
            "lat": -10.7,
            "lon": 142.1
        },
        {
            "id": "Australia:QLD_TP252",
            "name": "White Rocks Area",
            "lat": -10.5167,
            "lon": 142.0167
        },
        {
            "id": "Australia:QLD_TP253",
            "name": "Carpentaria",
            "lat": -10.7333,
            "lon": 141.3
        },
        {
            "id": "Australia:QLD_TP254",
            "name": "Round Island",
            "lat": -10.55,
            "lon": 142.2
        },
        {
            "id": "Australia:QLD_TP255",
            "name": "Badu Island",
            "lat": -10.1667,
            "lon": 142.1667
        },
        {
            "id": "Australia:QLD_TP256",
            "name": "Kirkcaldie Reef",
            "lat": -10.3167,
            "lon": 142.8
        },
        {
            "id": "Australia:QLD_TP257",
            "name": "Suarji Island",
            "lat": -10.1667,
            "lon": 142.5167
        },
        {
            "id": "Australia:QLD_TP258",
            "name": "Sue Islet",
            "lat": -10.2,
            "lon": 142.8167
        },
        {
            "id": "Australia:QLD_TP259",
            "name": "Hawkesbury Island",
            "lat": -10.3833,
            "lon": 142.1333
        },
        {
            "id": "Australia:QLD_TP260",
            "name": "Dugong Islet",
            "lat": -10.5167,
            "lon": 143.1
        },
        {
            "id": "Australia:QLD_TP261",
            "name": "Half Way Island",
            "lat": -10.1,
            "lon": 143.3167
        },
        {
            "id": "Australia:QLD_TP262",
            "name": "Mabuiag Island Barge",
            "lat": -9.95,
            "lon": 142.2
        },
        {
            "id": "Australia:QLD_TP265",
            "name": "Saibai Island",
            "lat": -9.3667,
            "lon": 142.6
        },
        {
            "id": "Australia:QLD_TP266",
            "name": "Yorke Island Barge",
            "lat": -9.75,
            "lon": 143.4
        },
        {
            "id": "Australia:QLD_TP267",
            "name": "Rennel Island",
            "lat": -9.7667,
            "lon": 143.2667
        },
        {
            "id": "Australia:QLD_TP268",
            "name": "Ashmore Reef North",
            "lat": -10.0833,
            "lon": 144.4667
        },
        {
            "id": "Australia:QLD_TP269",
            "name": "Aureed Island",
            "lat": -9.95,
            "lon": 143.2833
        },
        {
            "id": "Australia:QLD_TP270",
            "name": "Kai-maituine Reef - Northeast",
            "lat": -10.2333,
            "lon": 143.15
        },
        {
            "id": "Australia:QLD_TP271",
            "name": "Dungeness Reef",
            "lat": -9.9667,
            "lon": 142.9667
        },
        {
            "id": "Australia:QLD_TP272",
            "name": "Merrie England Shoals",
            "lat": -9.1667,
            "lon": 143.4667
        },
        {
            "id": "Australia:QLD_TP273",
            "name": "Mutacomal Reef",
            "lat": -9.2667,
            "lon": 143.2
        },
        {
            "id": "Australia:QLD_TP274",
            "name": "Darnley Island Barge",
            "lat": -9.5833,
            "lon": 143.75
        },
        {
            "id": "Australia:QLD_TP275",
            "name": "Osprey Reef - West",
            "lat": -13.8833,
            "lon": 146.5667
        },
        {
            "id": "Australia:QLD_TP276",
            "name": "Meer Island Barge",
            "lat": -9.9,
            "lon": 144.0333
        },
        {
            "id": "Australia:QLD_TP277",
            "name": "Bramble Cay",
            "lat": -9.15,
            "lon": 143.8667
        },
        {
            "id": "Australia:QLD_TP278",
            "name": "Unnamed Cay",
            "lat": -9.3667,
            "lon": 143.3333
        },
        {
            "id": "Australia:QLD_TP279",
            "name": "Pearce Cay",
            "lat": -9.5167,
            "lon": 143.3
        },
        {
            "id": "Australia:QLD_TP280",
            "name": "Saumarez Reef",
            "lat": -21.9167,
            "lon": 153.55
        },
        {
            "id": "Australia:QLD_TP281",
            "name": "Marion Reef",
            "lat": -19.1,
            "lon": 152.4
        },
        {
            "id": "Australia:QLD_TP282",
            "name": "Mellish Reef",
            "lat": -17.4167,
            "lon": 155.8667
        },
        {
            "id": "Australia:QLD_TP283",
            "name": "East Diamond Islet",
            "lat": -17.4333,
            "lon": 151.0667
        },
        {
            "id": "Australia:QLD_TP284",
            "name": "Magdelaine Cays",
            "lat": -16.6,
            "lon": 150.3333
        },
        {
            "id": "Australia:QLD_TP285",
            "name": "Elizabeth Reef",
            "lat": -29.9167,
            "lon": 159.0667
        },
        {
            "id": "Australia:SA_TP001",
            "name": "Port Adelaide (Outer Harbor)",
            "lat": -34.7833,
            "lon": 138.4833
        },
        {
            "id": "Australia:SA_TP002",
            "name": "Port Giles",
            "lat": -35.0167,
            "lon": 137.7667
        },
        {
            "id": "Australia:SA_TP003",
            "name": "Port Lincoln",
            "lat": -34.7167,
            "lon": 135.8667
        },
        {
            "id": "Australia:SA_TP004",
            "name": "Port Pirie",
            "lat": -33.1833,
            "lon": 138.0167
        },
        {
            "id": "Australia:SA_TP005",
            "name": "Thevenard",
            "lat": -32.15,
            "lon": 133.6333
        },
        {
            "id": "Australia:SA_TP006",
            "name": "Victor Harbor",
            "lat": -35.5667,
            "lon": 138.6333
        },
        {
            "id": "Australia:SA_TP007",
            "name": "Wallaroo",
            "lat": -33.9333,
            "lon": 137.6167
        },
        {
            "id": "Australia:SA_TP008",
            "name": "Whyalla",
            "lat": -33.0167,
            "lon": 137.5833
        },
        {
            "id": "Australia:SA_TP009",
            "name": "Arno Bay",
            "lat": -33.9167,
            "lon": 136.5833
        },
        {
            "id": "Australia:SA_TP010",
            "name": "Beachport",
            "lat": -37.5,
            "lon": 140
        },
        {
            "id": "Australia:SA_TP011",
            "name": "Cape Elizabeth",
            "lat": -34.25,
            "lon": 137.3333
        },
        {
            "id": "Australia:SA_TP012",
            "name": "Cape Jaffa",
            "lat": -36.9333,
            "lon": 139.6833
        },
        {
            "id": "Australia:SA_TP013",
            "name": "Cape Jervis",
            "lat": -35.6,
            "lon": 138.1
        },
        {
            "id": "Australia:SA_TP014",
            "name": "Elliston",
            "lat": -33.6333,
            "lon": 134.8667
        },
        {
            "id": "Australia:SA_TP016",
            "name": "Franklin Harbor",
            "lat": -33.75,
            "lon": 136.9167
        },
        {
            "id": "Australia:SA_TP017",
            "name": "Glenelg",
            "lat": -34.9667,
            "lon": 138.5
        },
        {
            "id": "Australia:SA_TP018",
            "name": "Greenly Island",
            "lat": -34.65,
            "lon": 134.7833
        },
        {
            "id": "Australia:SA_TP020",
            "name": "Penneshaw",
            "lat": -35.7167,
            "lon": 137.9333
        },
        {
            "id": "Australia:SA_TP023",
            "name": "Pearson Island",
            "lat": -33.9333,
            "lon": 134.2667
        },
        {
            "id": "Australia:SA_TP024",
            "name": "Point Turton",
            "lat": -34.9333,
            "lon": 137.35
        },
        {
            "id": "Australia:SA_TP025",
            "name": "Port Augusta",
            "lat": -32.55,
            "lon": 137.7833
        },
        {
            "id": "Australia:SA_TP026",
            "name": "Port Bonython",
            "lat": -33.0167,
            "lon": 137.7667
        },
        {
            "id": "Australia:SA_TP027",
            "name": "Port Broughton",
            "lat": -33.6,
            "lon": 137.9333
        },
        {
            "id": "Australia:SA_TP028",
            "name": "Port Eyre (Fowlers Bay)",
            "lat": -32,
            "lon": 132.4333
        },
        {
            "id": "Australia:SA_TP029",
            "name": "Port Macdonnell",
            "lat": -38.05,
            "lon": 140.7
        },
        {
            "id": "Australia:SA_TP030",
            "name": "Port Neill",
            "lat": -34.1167,
            "lon": 136.35
        },
        {
            "id": "Australia:SA_TP031",
            "name": "Port Noarlunga",
            "lat": -35.15,
            "lon": 138.4667
        },
        {
            "id": "Australia:SA_TP032",
            "name": "Port Stanvac",
            "lat": -35.1167,
            "lon": 138.4667
        },
        {
            "id": "Australia:SA_TP033",
            "name": "Port Victoria",
            "lat": -34.5,
            "lon": 137.4833
        },
        {
            "id": "Australia:SA_TP034",
            "name": "Red Cliff Point (Beacon 5)",
            "lat": -32.7333,
            "lon": 137.8167
        },
        {
            "id": "Australia:SA_TP035",
            "name": "Robe",
            "lat": -37.1667,
            "lon": 139.75
        },
        {
            "id": "Australia:SA_TP036",
            "name": "St Francis Island",
            "lat": -32.5,
            "lon": 133.3167
        },
        {
            "id": "Australia:SA_TP037",
            "name": "Second Valley",
            "lat": -35.5167,
            "lon": 138.2167
        },
        {
            "id": "Australia:SA_TP038",
            "name": "Shelf Edge Mooring",
            "lat": -35.7667,
            "lon": 135.75
        },
        {
            "id": "Australia:SA_TP039",
            "name": "Taylors Landing",
            "lat": -34.85,
            "lon": 135.95
        },
        {
            "id": "Australia:SA_TP040",
            "name": "Tiparra Reef Light",
            "lat": -34.0667,
            "lon": 137.4
        },
        {
            "id": "Australia:SA_TP041",
            "name": "Vivonne Bay",
            "lat": -36,
            "lon": 137.1833
        },
        {
            "id": "Australia:SA_TP042",
            "name": "Wedge Island Mooring",
            "lat": -35.1667,
            "lon": 136.5667
        },
        {
            "id": "Australia:SA_TP043",
            "name": "Whalers Bay",
            "lat": -35,
            "lon": 136.1833
        },
        {
            "id": "Australia:SA_TP046",
            "name": "Coffin Bay Entrance Beacon",
            "lat": -34.5,
            "lon": 135.3667
        },
        {
            "id": "Australia:SA_TP047",
            "name": "Coffin Bay Jetty",
            "lat": -34.6167,
            "lon": 135.4667
        },
        {
            "id": "Australia:SA_TP048",
            "name": "Stenhouse Bay",
            "lat": -35.2833,
            "lon": 136.95
        },
        {
            "id": "Australia:SA_TP049",
            "name": "Franklin Harbor Entrance Beacon",
            "lat": -33.75,
            "lon": 136.9833
        },
        {
            "id": "Australia:SA_TP050",
            "name": "Cape Hardy",
            "lat": -34.2,
            "lon": 136.3
        },
        {
            "id": "Australia:SA_TP051",
            "name": "Tumby Bay",
            "lat": -34.3833,
            "lon": 136.1
        },
        {
            "id": "Australia:SA_TP052",
            "name": "Western Shoal Beacon",
            "lat": -33.1833,
            "lon": 137.5333
        },
        {
            "id": "Australia:SA_TP053",
            "name": "Port Vincent",
            "lat": -34.7833,
            "lon": 137.8667
        },
        {
            "id": "Australia:SA_TP054",
            "name": "Ardrossan",
            "lat": -34.45,
            "lon": 137.9333
        },
        {
            "id": "Australia:SA_TP055",
            "name": "Kingston",
            "lat": -36.8333,
            "lon": 139.85
        },
        {
            "id": "Australia:SA_TP056",
            "name": "Brighton",
            "lat": -35.0333,
            "lon": 138.5167
        },
        {
            "id": "Australia:SA_TP058",
            "name": "Althorpe Island",
            "lat": -35.3667,
            "lon": 136.8667
        },
        {
            "id": "Australia:SA_TP059",
            "name": "Pondalowie Bay",
            "lat": -35.25,
            "lon": 136.8167
        },
        {
            "id": "Australia:SA_TP060",
            "name": "Reevesby Island",
            "lat": -34.5333,
            "lon": 136.2833
        },
        {
            "id": "Australia:SA_TP061",
            "name": "Blanche Port (Streaky Bay)",
            "lat": -32.8,
            "lon": 134.2167
        },
        {
            "id": "Australia:SA_TP062",
            "name": "Kingscote",
            "lat": -35.6167,
            "lon": 137.6333
        },
        {
            "id": "Australia:SA_TP063",
            "name": "Port Kenny",
            "lat": -33.1667,
            "lon": 134.6833
        },
        {
            "id": "Australia:SA_TP064",
            "name": "Venus Bay",
            "lat": -33.2333,
            "lon": 134.6667
        },
        {
            "id": "Australia:SA_TP065",
            "name": "Cape Rabelais (Off)",
            "lat": -37.3667,
            "lon": 139.5667
        },
        {
            "id": "Australia:SA_TP067",
            "name": "American River",
            "lat": -35.8,
            "lon": 137.7667
        },
        {
            "id": "Australia:TAS_TP001",
            "name": "Burnie",
            "lat": -41.05,
            "lon": 145.9167
        },
        {
            "id": "Australia:TAS_TP002",
            "name": "Darlington Jetty",
            "lat": -42.5833,
            "lon": 148.0667
        },
        {
            "id": "Australia:TAS_TP003",
            "name": "Hobart",
            "lat": -42.8833,
            "lon": 147.3333
        },
        {
            "id": "Australia:TAS_TP004",
            "name": "Low Head",
            "lat": -41.0667,
            "lon": 146.8
        },
        {
            "id": "Australia:TAS_TP005",
            "name": "Devonport",
            "lat": -41.15,
            "lon": 146.3833
        },
        {
            "id": "Australia:TAS_TP006",
            "name": "Southport Jetty",
            "lat": -43.4333,
            "lon": 146.9667
        },
        {
            "id": "Australia:TAS_TP007",
            "name": "Spring Bay",
            "lat": -42.55,
            "lon": 147.9333
        },
        {
            "id": "Australia:TAS_TP008",
            "name": "Stanley",
            "lat": -40.7667,
            "lon": 145.3
        },
        {
            "id": "Australia:TAS_TP009",
            "name": "Casey",
            "lat": -66.2667,
            "lon": 110.5167
        },
        {
            "id": "Australia:TAS_TP010",
            "name": "Commonwealth Bay",
            "lat": -67,
            "lon": 142.65
        },
        {
            "id": "Australia:TAS_TP011",
            "name": "Davis",
            "lat": -68.5667,
            "lon": 77.9667
        },
        {
            "id": "Australia:TAS_TP012",
            "name": "Mawson",
            "lat": -67.6,
            "lon": 62.8667
        },
        {
            "id": "Australia:TAS_TP013",
            "name": "Zhong Shan",
            "lat": -69.3833,
            "lon": 76.3667
        },
        {
            "id": "Australia:TAS_TP014",
            "name": "Macquarie Island",
            "lat": -54.5,
            "lon": 158.95
        },
        {
            "id": "Australia:TAS_TP015",
            "name": "Heard Island",
            "lat": -53.0167,
            "lon": 73.3833
        },
        {
            "id": "Australia:TAS_TP016",
            "name": "Bell Bay",
            "lat": -41.1333,
            "lon": 146.8667
        },
        {
            "id": "Australia:TAS_TP017",
            "name": "Bramble Cove",
            "lat": -43.3167,
            "lon": 146
        },
        {
            "id": "Australia:TAS_TP018",
            "name": "Granville Harbour",
            "lat": -41.8,
            "lon": 145.0167
        },
        {
            "id": "Australia:TAS_TP019",
            "name": "Launceston",
            "lat": -41.4333,
            "lon": 147.1333
        },
        {
            "id": "Australia:TAS_TP022",
            "name": "Port Huon",
            "lat": -43.1667,
            "lon": 146.9833
        },
        {
            "id": "Australia:TAS_TP023",
            "name": "King Island (Grassy)",
            "lat": -40.05,
            "lon": 144.0833
        },
        {
            "id": "Australia:TAS_TP024",
            "name": "Stack Island",
            "lat": -40.6,
            "lon": 144.7833
        },
        {
            "id": "Australia:TAS_TP025",
            "name": "Pirates Bay",
            "lat": -43.0333,
            "lon": 147.9667
        },
        {
            "id": "Australia:TAS_TP026",
            "name": "Parsons Bay",
            "lat": -43.1,
            "lon": 147.75
        },
        {
            "id": "Australia:TAS_TP027",
            "name": "Pieman River",
            "lat": -41.8,
            "lon": 145
        },
        {
            "id": "Australia:TAS_TP028",
            "name": "Bicheno",
            "lat": -41.8667,
            "lon": 148.3
        },
        {
            "id": "Australia:TAS_TP029",
            "name": "Seal Bay",
            "lat": -40.1333,
            "lon": 143.9333
        },
        {
            "id": "Australia:TAS_TP030",
            "name": "Bass Pyramid",
            "lat": -39.8667,
            "lon": 147.0833
        },
        {
            "id": "Australia:TAS_TP031",
            "name": "Big River Cove",
            "lat": -40.2667,
            "lon": 148.1
        },
        {
            "id": "Australia:TAS_TP032",
            "name": "Lady Barron Harbour",
            "lat": -40.2167,
            "lon": 148.25
        },
        {
            "id": "Australia:TAS_TP033",
            "name": "Swan Island",
            "lat": -40.7333,
            "lon": 148.1167
        },
        {
            "id": "Australia:TAS_TP034",
            "name": "Eddystone Point",
            "lat": -41,
            "lon": 148.35
        },
        {
            "id": "Australia:TAS_TP035",
            "name": "St Helens",
            "lat": -41.3333,
            "lon": 148.25
        },
        {
            "id": "Australia:TAS_TP036",
            "name": "Falmouth",
            "lat": -41.5,
            "lon": 148.2667
        },
        {
            "id": "Australia:TAS_TP037",
            "name": "Coles Bay",
            "lat": -42.1333,
            "lon": 148.2833
        },
        {
            "id": "Australia:TAS_TP038",
            "name": "Impression Bay",
            "lat": -43.05,
            "lon": 147.7833
        },
        {
            "id": "Australia:TAS_TP039",
            "name": "Recherche Bay",
            "lat": -43.55,
            "lon": 146.9
        },
        {
            "id": "Australia:TAS_TP040",
            "name": "Maatsuyker Island",
            "lat": -43.6667,
            "lon": 146.3167
        },
        {
            "id": "Australia:TAS_TP041",
            "name": "Cape Sorell (Off)",
            "lat": -42.15,
            "lon": 145.0333
        },
        {
            "id": "Australia:TAS_TP042",
            "name": "Three Hummock Island",
            "lat": -40.45,
            "lon": 144.8333
        },
        {
            "id": "Australia:TAS_TP043",
            "name": "East Moncoeur Island",
            "lat": -39.2167,
            "lon": 146.5833
        },
        {
            "id": "Australia:TAS_TP044",
            "name": "Curtis Island",
            "lat": -39.4833,
            "lon": 146.7167
        },
        {
            "id": "Australia:TAS_TP045",
            "name": "Hogan Island",
            "lat": -39.2167,
            "lon": 146.9833
        },
        {
            "id": "Australia:TAS_TP046",
            "name": "Garden Cove",
            "lat": -39.45,
            "lon": 147.3333
        },
        {
            "id": "Australia:VIC_TP001",
            "name": "Lakes Entrance (Outer)",
            "lat": -37.8833,
            "lon": 147.9667
        },
        {
            "id": "Australia:VIC_TP002",
            "name": "Lorne",
            "lat": -38.55,
            "lon": 143.9833
        },
        {
            "id": "Australia:VIC_TP003",
            "name": "Melbourne (Williamstown)",
            "lat": -37.8667,
            "lon": 144.9167
        },
        {
            "id": "Australia:VIC_TP004",
            "name": "Point Richards (Corio Bay)",
            "lat": -38.1,
            "lon": 144.65
        },
        {
            "id": "Australia:VIC_TP005",
            "name": "Geelong",
            "lat": -38.15,
            "lon": 144.3667
        },
        {
            "id": "Australia:VIC_TP006",
            "name": "Hovell Pile",
            "lat": -38.3333,
            "lon": 144.9
        },
        {
            "id": "Australia:VIC_TP007",
            "name": "Queenscliff",
            "lat": -38.2667,
            "lon": 144.6667
        },
        {
            "id": "Australia:VIC_TP008",
            "name": "West Channel Pile",
            "lat": -38.2,
            "lon": 144.75
        },
        {
            "id": "Australia:VIC_TP009",
            "name": "Point Lonsdale",
            "lat": -38.3,
            "lon": 144.6167
        },
        {
            "id": "Australia:VIC_TP010",
            "name": "Port Welshpool Pier",
            "lat": -38.7,
            "lon": 146.4667
        },
        {
            "id": "Australia:VIC_TP011",
            "name": "Portland",
            "lat": -38.35,
            "lon": 141.6167
        },
        {
            "id": "Australia:VIC_TP012",
            "name": "Rabbit Island",
            "lat": -38.9167,
            "lon": 146.5167
        },
        {
            "id": "Australia:VIC_TP013",
            "name": "Western Port (Stony Point)",
            "lat": -38.3667,
            "lon": 145.2167
        },
        {
            "id": "Australia:VIC_TP014",
            "name": "Altona",
            "lat": -37.8667,
            "lon": 144.8333
        },
        {
            "id": "Australia:VIC_TP015",
            "name": "Barracouta Platform",
            "lat": -38.3,
            "lon": 147.6667
        },
        {
            "id": "Australia:VIC_TP016",
            "name": "Barwon Heads",
            "lat": -38.2833,
            "lon": 144.5
        },
        {
            "id": "Australia:VIC_TP017",
            "name": "Bouchier Channel",
            "lat": -38.25,
            "lon": 145.45
        },
        {
            "id": "Australia:VIC_TP018",
            "name": "Cowes Jetty",
            "lat": -38.45,
            "lon": 145.25
        },
        {
            "id": "Australia:VIC_TP019",
            "name": "Elizabeth Island",
            "lat": -38.4167,
            "lon": 145.3667
        },
        {
            "id": "Australia:VIC_TP020",
            "name": "Flinders Jetty",
            "lat": -38.4833,
            "lon": 145.0333
        },
        {
            "id": "Australia:VIC_TP022",
            "name": "Mornington",
            "lat": -38.2333,
            "lon": 145.0167
        },
        {
            "id": "Australia:VIC_TP023",
            "name": "Point Richards",
            "lat": -38.1,
            "lon": -144.6333
        },
        {
            "id": "Australia:VIC_TP024",
            "name": "Point Richards Channel",
            "lat": -38.0833,
            "lon": 144.6167
        },
        {
            "id": "Australia:VIC_TP025",
            "name": "Port Fairy",
            "lat": -38.4,
            "lon": 142.25
        },
        {
            "id": "Australia:VIC_TP026",
            "name": "Rosebud Jetty",
            "lat": -38.3667,
            "lon": 144.85
        },
        {
            "id": "Australia:VIC_TP027",
            "name": "St Kilda",
            "lat": -37.8667,
            "lon": 144.9667
        },
        {
            "id": "Australia:VIC_TP028",
            "name": "St Leonards",
            "lat": -38.1833,
            "lon": 144.7167
        },
        {
            "id": "Australia:VIC_TP029",
            "name": "San Remo",
            "lat": -38.5333,
            "lon": 145.3833
        },
        {
            "id": "Australia:VIC_TP030",
            "name": "Sandringham",
            "lat": -37.9667,
            "lon": 145
        },
        {
            "id": "Australia:VIC_TP031",
            "name": "Western Port (Sandy Point)",
            "lat": -38.4167,
            "lon": 145.2167
        },
        {
            "id": "Australia:VIC_TP033",
            "name": "Tooradin",
            "lat": -38.2167,
            "lon": 145.3833
        },
        {
            "id": "Australia:VIC_TP034",
            "name": "Werribee",
            "lat": -37.9667,
            "lon": 144.7
        },
        {
            "id": "Australia:VIC_TP035",
            "name": "West Channel Pile Light",
            "lat": -38.2833,
            "lon": -144.75
        },
        {
            "id": "Australia:VIC_TP036",
            "name": "West Channel Wedge Light",
            "lat": -38.2833,
            "lon": -144.7
        },
        {
            "id": "Australia:VIC_TP037",
            "name": "Wilson Spit",
            "lat": -38.0833,
            "lon": 144.5
        },
        {
            "id": "Australia:VIC_TP038",
            "name": "Apollo Bay",
            "lat": -38.7667,
            "lon": 143.6833
        },
        {
            "id": "Australia:VIC_TP039",
            "name": "Gabo Island",
            "lat": -37.5667,
            "lon": 149.9167
        },
        {
            "id": "Australia:VIC_TP040",
            "name": "Port Campbell",
            "lat": -38.6333,
            "lon": 143
        },
        {
            "id": "Australia:VIC_TP041",
            "name": "Point Hicks",
            "lat": -37.8,
            "lon": 149.2667
        },
        {
            "id": "Australia:VIC_TP044",
            "name": "Waratah Bay",
            "lat": -38.8667,
            "lon": 146
        },
        {
            "id": "Australia:VIC_TP047",
            "name": "Warrnambool",
            "lat": -38.4,
            "lon": 142.4833
        },
        {
            "id": "Australia:WA_TP001",
            "name": "Albany",
            "lat": -35.0333,
            "lon": 117.9
        },
        {
            "id": "Australia:WA_TP002",
            "name": "Barrow Island (Tanker Mooring)",
            "lat": -20.8167,
            "lon": 115.55
        },
        {
            "id": "Australia:WA_TP003",
            "name": "Barrow Island (Wapet Landing)",
            "lat": -20.7333,
            "lon": 115.4667
        },
        {
            "id": "Australia:WA_TP004",
            "name": "Broome",
            "lat": -18,
            "lon": 122.2167
        },
        {
            "id": "Australia:WA_TP005",
            "name": "Bunbury",
            "lat": -33.3167,
            "lon": 115.6667
        },
        {
            "id": "Australia:WA_TP006",
            "name": "Cape Cuvier",
            "lat": -24.25,
            "lon": 113.4
        },
        {
            "id": "Australia:WA_TP007",
            "name": "Cape Voltaire (Krait Bay)",
            "lat": -14.25,
            "lon": 125.6
        },
        {
            "id": "Australia:WA_TP008",
            "name": "Carnarvon",
            "lat": -24.9,
            "lon": 113.65
        },
        {
            "id": "Australia:WA_TP009",
            "name": "Christmas Island",
            "lat": -10.4333,
            "lon": 105.6667
        },
        {
            "id": "Australia:WA_TP010",
            "name": "Home Island",
            "lat": -12.1167,
            "lon": 96.9
        },
        {
            "id": "Australia:WA_TP011",
            "name": "Dampier (King Bay)",
            "lat": -20.6167,
            "lon": 116.75
        },
        {
            "id": "Australia:WA_TP012",
            "name": "Denham",
            "lat": -25.9333,
            "lon": 113.5333
        },
        {
            "id": "Australia:WA_TP013",
            "name": "Esperance",
            "lat": -33.8667,
            "lon": 121.9
        },
        {
            "id": "Australia:WA_TP014",
            "name": "Exmouth",
            "lat": -21.95,
            "lon": 114.1333
        },
        {
            "id": "Australia:WA_TP015",
            "name": "Fremantle",
            "lat": -32.05,
            "lon": 115.7333
        },
        {
            "id": "Australia:WA_TP016",
            "name": "Geraldton",
            "lat": -28.7833,
            "lon": 114.6
        },
        {
            "id": "Australia:WA_TP017",
            "name": "Hillarys",
            "lat": -31.8333,
            "lon": 115.7333
        },
        {
            "id": "Australia:WA_TP018",
            "name": "Onslow (Beadon Creek)",
            "lat": -21.65,
            "lon": 115.1333
        },
        {
            "id": "Australia:WA_TP019",
            "name": "Point Murat",
            "lat": -21.8167,
            "lon": 114.1833
        },
        {
            "id": "Australia:WA_TP020",
            "name": "Port Hedland",
            "lat": -20.3167,
            "lon": 118.5667
        },
        {
            "id": "Australia:WA_TP021",
            "name": "Port Walcott (Cape Lambert)",
            "lat": -20.5833,
            "lon": 117.1833
        },
        {
            "id": "Australia:WA_TP022",
            "name": "Thevenard Island",
            "lat": -21.4667,
            "lon": 115.0167
        },
        {
            "id": "Australia:WA_TP023",
            "name": "Wyndham",
            "lat": -15.45,
            "lon": 128.1
        },
        {
            "id": "Australia:WA_TP024",
            "name": "Yampi Sound (Koolan Island)",
            "lat": -16.1333,
            "lon": 123.7333
        },
        {
            "id": "Australia:WA_TP025",
            "name": "Ashburton North",
            "lat": -21.65,
            "lon": 115.0167
        },
        {
            "id": "Australia:WA_TP026",
            "name": "Ashmore Reef",
            "lat": -12.2167,
            "lon": 123.0167
        },
        {
            "id": "Australia:WA_TP027",
            "name": "Badjirrajirra",
            "lat": -22.1167,
            "lon": 114.0833
        },
        {
            "id": "Australia:WA_TP028",
            "name": "Bedout Island",
            "lat": -19.6,
            "lon": 119.1
        },
        {
            "id": "Australia:WA_TP029",
            "name": "Bonaparte Gulf",
            "lat": -12.8333,
            "lon": 128.4667
        },
        {
            "id": "Australia:WA_TP030",
            "name": "Cape Baskerville",
            "lat": -17.1,
            "lon": 122.25
        },
        {
            "id": "Australia:WA_TP031",
            "name": "Cape Boileau",
            "lat": -17.6667,
            "lon": 122.1833
        },
        {
            "id": "Australia:WA_TP032",
            "name": "Cape Domett",
            "lat": -14.8333,
            "lon": 128.3
        },
        {
            "id": "Australia:WA_TP035",
            "name": "Cape Legendre",
            "lat": -20.35,
            "lon": 116.8333
        },
        {
            "id": "Australia:WA_TP039",
            "name": "West Jetty",
            "lat": -12.15,
            "lon": 96.8167
        },
        {
            "id": "Australia:WA_TP040",
            "name": "Cosy Corner",
            "lat": -34.2667,
            "lon": 115.05
        },
        {
            "id": "Australia:WA_TP042",
            "name": "Degerando Island",
            "lat": -15.35,
            "lon": 124.1833
        },
        {
            "id": "Australia:WA_TP043",
            "name": "Derby",
            "lat": -17.3,
            "lon": 123.6
        },
        {
            "id": "Australia:WA_TP044",
            "name": "Dillon Shoal",
            "lat": -11,
            "lon": 125.6
        },
        {
            "id": "Australia:WA_TP045",
            "name": "Eucla",
            "lat": -31.7167,
            "lon": 128.8667
        },
        {
            "id": "Australia:WA_TP046",
            "name": "Fairway Beacon",
            "lat": -20.5333,
            "lon": 116.7
        },
        {
            "id": "Australia:WA_TP047",
            "name": "Hamelin Pool",
            "lat": -26.3833,
            "lon": 114.1833
        },
        {
            "id": "Australia:WA_TP048",
            "name": "Hauy Island",
            "lat": -20.4333,
            "lon": 116.9667
        },
        {
            "id": "Australia:WA_TP049",
            "name": "Jurien Bay",
            "lat": -30.3,
            "lon": 115.0333
        },
        {
            "id": "Australia:WA_TP050",
            "name": "Lacrosse Island",
            "lat": -14.75,
            "lon": 128.3
        },
        {
            "id": "Australia:WA_TP051",
            "name": "Lesueur Island",
            "lat": -13.8333,
            "lon": 127.2833
        },
        {
            "id": "Australia:WA_TP052",
            "name": "Lizard Island",
            "lat": -15.9333,
            "lon": 124.4333
        },
        {
            "id": "Australia:WA_TP054",
            "name": "Maret Island",
            "lat": -14.4,
            "lon": 124.9833
        },
        {
            "id": "Australia:WA_TP055",
            "name": "Mawby Island",
            "lat": -20.5167,
            "lon": 116.6833
        },
        {
            "id": "Australia:WA_TP056",
            "name": "Nornalup Inlet",
            "lat": -35,
            "lon": 116.7333
        },
        {
            "id": "Australia:WA_TP057",
            "name": "North Island",
            "lat": -28.3,
            "lon": 113.6
        },
        {
            "id": "Australia:WA_TP058",
            "name": "North Sandy Island",
            "lat": -21.1,
            "lon": 115.65
        },
        {
            "id": "Australia:WA_TP059",
            "name": "North West Island",
            "lat": -20.3667,
            "lon": 115.5167
        },
        {
            "id": "Australia:WA_TP061",
            "name": "Pelican Island",
            "lat": -14.7667,
            "lon": 128.7833
        },
        {
            "id": "Australia:WA_TP062",
            "name": "Perth (Barrack Street Jetty)",
            "lat": -31.9667,
            "lon": 115.85
        },
        {
            "id": "Australia:WA_TP063",
            "name": "Port Gregory",
            "lat": -28.1833,
            "lon": 114.2333
        },
        {
            "id": "Australia:WA_TP064",
            "name": "Port Usborne",
            "lat": -16.6833,
            "lon": 123.5333
        },
        {
            "id": "Australia:WA_TP065",
            "name": "Port Warrender",
            "lat": -14.5167,
            "lon": 125.9
        },
        {
            "id": "Australia:WA_TP066",
            "name": "Reveley Island",
            "lat": -14.3333,
            "lon": 127.9
        },
        {
            "id": "Australia:WA_TP067",
            "name": "Rocky Island",
            "lat": -14.0667,
            "lon": 127.5667
        },
        {
            "id": "Australia:WA_TP068",
            "name": "Shark Bay",
            "lat": -25.2667,
            "lon": 113.4667
        },
        {
            "id": "Australia:WA_TP069",
            "name": "Sholl Island",
            "lat": -20.95,
            "lon": 115.8833
        },
        {
            "id": "Australia:WA_TP070",
            "name": "Cape Hamelin",
            "lat": -34.2667,
            "lon": 115.0333
        },
        {
            "id": "Australia:WA_TP071",
            "name": "Steamboat Island",
            "lat": -20.8333,
            "lon": 116.0667
        },
        {
            "id": "Australia:WA_TP072",
            "name": "Sunday Island",
            "lat": -16.3833,
            "lon": 123.1833
        },
        {
            "id": "Australia:WA_TP073",
            "name": "Twilight Cove",
            "lat": -32.3167,
            "lon": 126.0333
        },
        {
            "id": "Australia:WA_TP074",
            "name": "Valentine Island",
            "lat": -17.0833,
            "lon": 123.3167
        },
        {
            "id": "Australia:WA_TP075",
            "name": "Van Cloon Shoal",
            "lat": -12.6333,
            "lon": 126.4333
        },
        {
            "id": "Australia:WA_TP076",
            "name": "Warnbro Sound",
            "lat": -32.3167,
            "lon": 115.7167
        },
        {
            "id": "Australia:WA_TP077",
            "name": "Windy Harbour",
            "lat": -34.85,
            "lon": 116.0167
        },
        {
            "id": "Australia:WA_TP078",
            "name": "Withnell Bay",
            "lat": -20.5667,
            "lon": 116.7667
        },
        {
            "id": "Australia:WA_TP079",
            "name": "Echo Shoal",
            "lat": -10.15,
            "lon": 126.8167
        },
        {
            "id": "Australia:WA_TP080",
            "name": "Napier Broome Bay",
            "lat": -14.1,
            "lon": 126.7
        },
        {
            "id": "Australia:WA_TP081",
            "name": "Jar Island",
            "lat": -14.15,
            "lon": 126.2333
        },